place,lon,lat
Antwerp,4.4024643,51.2194475
Haarlem,4.6462194,52.3873878
Dordrecht,4.6900929,51.81329789999999
Venice,12.3155151,45.4408474
Lisse,4.5574834,52.25793030000001
Het Vlie,5.183333,53.3
Hamburg,9.9936819,53.5510846
Emden,7.2060095,53.35940290000001
Amsterdam,4.895167900000001,52.3702157
Delft,4.3570677,52.01157689999999
The Hague,4.3006999,52.0704978
Middelburg,3.610998,51.4987962
Bremen,8.8016936,53.07929619999999
